version;reserved0;flags;invalidLlh;iTOW;lon;lat;height;hMSL;lonHp;latHp;heightHp;hMSLHp;hAcc;vAcc
0;0;('X001', {'invalidLlh': 'U001'});0;219865000;14.19092574;40.828878612;76374.7;35099.1;40;12;-3;1;1091.1;1608.4
0;0;('X001', {'invalidLlh': 'U001'});0;219866000;14.19092566;40.828878713;76378.8;35103.2;-40;13;-2;2;1084.6;1599.5
0;0;('X001', {'invalidLlh': 'U001'});0;219867000;14.190925592;40.828878846;76402.3;35126.7;-8;46;3;-3;1078.5;1591.1
0;0;('X001', {'invalidLlh': 'U001'});0;219868000;14.190925533;40.828878884;76468.7;35193.1;33;-16;-3;1;1072.6;1583.0
0;0;('X001', {'invalidLlh': 'U001'});0;219869000;14.190925527;40.828878942;76492.1;35216.5;27;42;1;-5;1066.9;1575.1
0;0;('X001', {'invalidLlh': 'U001'});0;219870000;14.190925595;40.82887901;76458.7;35183.1;-5;10;-3;1;1061.4;1567.4
0;0;('X001', {'invalidLlh': 'U001'});0;219871000;14.190925692;40.828879055;76434.6;35159.0;-8;-45;-4;0;1056.0;1559.8
0;0;('X001', {'invalidLlh': 'U001'});0;219872000;14.190925764;40.828879079;76408.4;35132.8;-36;-21;4;-2;1050.9;1552.5
0;0;('X001', {'invalidLlh': 'U001'});0;219873000;14.190925807;40.82887912;76384.0;35108.3;7;20;0;3;1045.9;1545.6
0;0;('X001', {'invalidLlh': 'U001'});0;219874000;14.190925819;40.828879142;76379.1;35103.5;19;42;1;5;1041.0;1538.9
0;0;('X001', {'invalidLlh': 'U001'});0;219875000;14.190925865;40.82887918;76366.1;35090.5;-35;-20;1;-5;1036.6;1532.8
0;0;('X001', {'invalidLlh': 'U001'});0;219876000;14.190922568;40.828881142;71929.9;30654.3;-32;42;-1;3;1417.5;1509.4
0;0;('X001', {'invalidLlh': 'U001'});0;219877000;14.19092293;40.828882093;76450.9;35175.3;30;-7;-1;3;716.2;806.0
0;0;('X001', {'invalidLlh': 'U001'});0;219878000;14.190922769;40.828881562;77921.0;36645.4;-31;-38;0;4;486.6;574.7
0;0;('X001', {'invalidLlh': 'U001'});0;219879000;14.190922847;40.828881219;78777.0;37501.3;47;19;0;3;379.5;461.3
0;0;('X001', {'invalidLlh': 'U001'});0;219880000;14.19092303;40.828880682;79508.1;38232.5;30;-18;1;5;295.5;374.5
0;0;('X001', {'invalidLlh': 'U001'});0;219881000;14.190923312;40.828880129;80083.8;38808.2;12;29;-2;2;247.3;321.7
0;0;('X001', {'invalidLlh': 'U001'});0;219882000;14.19092356;40.828879749;80547.5;39271.9;-40;49;5;-1;217.2;288.9
0;0;('X001', {'invalidLlh': 'U001'});0;219883000;14.190923751;40.828879405;80932.3;39656.6;-49;5;3;-4;196.9;266.6
0;0;('X001', {'invalidLlh': 'U001'});0;219884000;14.190923974;40.828879092;81269.9;39994.3;-26;-8;-1;3;182.3;250.3
0;0;('X001', {'invalidLlh': 'U001'});0;219885000;14.190924188;40.828878779;81565.9;40290.3;-12;-21;-1;3;171.5;238.0
0;0;('X001', {'invalidLlh': 'U001'});0;219886000;14.190924353;40.828878506;81805.3;40529.7;-47;6;3;-3;163.2;227.9
0;0;('X001', {'invalidLlh': 'U001'});0;219887000;14.190924473;40.828878246;82001.0;40725.4;-27;46;0;4;156.8;220.0
0;0;('X001', {'invalidLlh': 'U001'});0;219888000;14.190924533;40.828878001;82168.5;40892.9;33;1;-5;-1;151.6;213.5
0;0;('X001', {'invalidLlh': 'U001'});0;219889000;14.190924561;40.828877815;82303.1;41027.5;-39;15;1;5;147.1;207.7
0;0;('X001', {'invalidLlh': 'U001'});0;219890000;14.190924521;40.828877706;82417.5;41141.9;21;6;-5;-1;143.4;202.7
0;0;('X001', {'invalidLlh': 'U001'});0;219891000;14.19092443;40.828877621;82510.5;41234.9;30;21;5;-1;140.2;198.3
0;0;('X001', {'invalidLlh': 'U001'});0;219892000;14.190924277;40.828877573;82587.6;41311.9;-23;-27;-4;-1;137.6;194.5
0;0;('X001', {'invalidLlh': 'U001'});0;219893000;14.190924105;40.828877504;82652.6;41377.0;5;4;-4;0;135.3;191.0
0;0;('X001', {'invalidLlh': 'U001'});0;219894000;14.190923948;40.828877394;82708.4;41432.8;48;-6;4;-2;133.1;188.4
0;0;('X001', {'invalidLlh': 'U001'});0;219895000;14.190923772;40.828877182;82756.7;41481.0;-28;-18;-3;0;131.1;186.1
0;0;('X001', {'invalidLlh': 'U001'});0;219896000;14.19092357;40.828876915;82797.8;41522.2;-30;15;-2;2;129.4;183.8
0;0;('X001', {'invalidLlh': 'U001'});0;219897000;14.190923331;40.828876624;82833.7;41558.1;31;24;-3;1;127.7;181.6
0;0;('X001', {'invalidLlh': 'U001'});0;219898000;14.190923098;40.828876361;82872.9;41597.3;-2;-39;-1;3;125.8;179.3
0;0;('X001', {'invalidLlh': 'U001'});0;219899000;14.190922894;40.828876111;82908.9;41633.2;-6;11;-1;2;123.7;176.9
0;0;('X001', {'invalidLlh': 'U001'});0;219900000;14.190922745;40.828875836;82936.4;41660.8;45;36;4;-2;121.8;174.8
0;0;('X001', {'invalidLlh': 'U001'});0;219901000;14.190922627;40.828875567;82958.4;41682.8;27;-33;4;-2;120.2;172.6
0;0;('X001', {'invalidLlh': 'U001'});0;219902000;14.190922513;40.828875319;82969.3;41693.7;13;19;3;-3;119.0;170.4
0;0;('X001', {'invalidLlh': 'U001'});0;219903000;14.190922414;40.828875114;82977.0;41701.4;14;14;0;4;117.8;168.6
0;0;('X001', {'invalidLlh': 'U001'});0;219904000;14.190922362;40.828874925;82994.5;41718.9;-38;25;5;-1;116.6;166.9
0;0;('X001', {'invalidLlh': 'U001'});0;219905000;14.19092231;40.828874746;83011.4;41735.7;10;46;4;-3;115.4;165.0
0;0;('X001', {'invalidLlh': 'U001'});0;219906000;14.190922276;40.828874559;83037.7;41762.1;-24;-41;-3;1;114.1;163.3
0;0;('X001', {'invalidLlh': 'U001'});0;219907000;14.190922209;40.828874682;83141.9;41866.3;9;-18;-1;3;110.8;158.1
0;0;('X001', {'invalidLlh': 'U001'});0;219908000;14.190922154;40.828874972;83282.0;42006.4;-46;-28;0;4;108.7;154.9
0;0;('X001', {'invalidLlh': 'U001'});0;219909000;14.190922096;40.828875354;83434.7;42159.1;-4;-46;-3;1;107.2;152.8
0;0;('X001', {'invalidLlh': 'U001'});0;219910000;14.190922096;40.828875875;83586.3;42310.7;-4;-25;3;-3;105.9;151.2
0;0;('X001', {'invalidLlh': 'U001'});0;219911000;14.190922105;40.828876477;83735.1;42459.4;5;-23;1;4;104.8;149.5
0;0;('X001', {'invalidLlh': 'U001'});0;219912000;14.190922138;40.828877083;83872.1;42596.5;38;-17;1;5;103.8;147.7
0;0;('X001', {'invalidLlh': 'U001'});0;219913000;14.190921197;40.828875089;85210.6;43934.9;-3;-11;-4;-1;56.9;84.1
0;0;('X001', {'invalidLlh': 'U001'});0;219914000;14.190921227;40.828875099;85226.1;43950.4;27;-1;1;4;47.5;71.2
0;0;('X001', {'invalidLlh': 'U001'});0;219915000;14.190921231;40.828875155;85233.5;43957.9;31;-45;-5;-1;47.3;70.9
0;0;('X001', {'invalidLlh': 'U001'});0;219916000;14.190921244;40.828875194;85234.4;43958.8;44;-6;4;-2;47.2;70.8
0;0;('X001', {'invalidLlh': 'U001'});0;219917000;14.190921251;40.828875179;85231.1;43955.4;-49;-21;1;4;47.1;70.6
0;0;('X001', {'invalidLlh': 'U001'});0;219918000;14.190921268;40.82887516;85227.4;43951.7;-32;-40;4;-3;47.3;70.6
0;0;('X001', {'invalidLlh': 'U001'});0;219919000;14.190921306;40.828875134;85227.4;43951.8;6;34;4;-2;46.9;70.1
0;0;('X001', {'invalidLlh': 'U001'});0;219920000;14.190921319;40.828875141;85220.4;43944.8;19;41;4;-2;46.8;70.1
0;0;('X001', {'invalidLlh': 'U001'});0;219921000;14.190921338;40.828875157;85215.7;43940.1;38;-43;-3;1;46.8;69.9
0;0;('X001', {'invalidLlh': 'U001'});0;219922000;14.190921336;40.828875144;85213.8;43938.2;36;44;-2;2;46.8;70.0
0;0;('X001', {'invalidLlh': 'U001'});0;219923000;14.190921343;40.828875137;85210.1;43934.4;43;37;1;4;46.6;69.7
0;0;('X001', {'invalidLlh': 'U001'});0;219924000;14.190921345;40.828875119;85217.0;43941.4;45;19;0;4;46.0;69.2
0;0;('X001', {'invalidLlh': 'U001'});0;219925000;14.190921366;40.828875103;85215.9;43940.3;-34;3;-1;3;45.9;69.0
0;0;('X001', {'invalidLlh': 'U001'});0;219926000;14.190921376;40.828875102;85216.8;43941.2;-24;2;-2;2;45.8;68.9
0;0;('X001', {'invalidLlh': 'U001'});0;219927000;14.190921376;40.828875097;85215.2;43939.6;-24;-3;2;-4;46.1;68.9
0;0;('X001', {'invalidLlh': 'U001'});0;219928000;14.190921402;40.828875076;85212.5;43936.9;2;-24;5;-1;46.3;69.1
0;0;('X001', {'invalidLlh': 'U001'});0;219929000;14.190921394;40.828875055;85225.1;43949.5;-6;-45;1;5;44.9;67.4
0;0;('X001', {'invalidLlh': 'U001'});0;219930000;14.190921409;40.828875058;85228.1;43952.5;9;-42;1;5;44.7;67.0
0;0;('X001', {'invalidLlh': 'U001'});0;219931000;14.190921408;40.828875067;85226.8;43951.2;8;-33;-2;2;44.6;66.8
0;0;('X001', {'invalidLlh': 'U001'});0;219932000;14.19092142;40.828875092;85229.3;43953.6;20;-8;3;-4;44.6;66.7
0;0;('X001', {'invalidLlh': 'U001'});0;219933000;14.19092141;40.828875099;85224.3;43948.7;10;-1;3;-3;44.6;66.6
0;0;('X001', {'invalidLlh': 'U001'});0;219934000;14.190921417;40.828875101;85224.3;43948.7;17;1;3;-3;44.9;66.9
0;0;('X001', {'invalidLlh': 'U001'});0;219935000;14.190921436;40.828875089;85219.6;43944.0;36;-11;-4;0;44.9;66.7
0;0;('X001', {'invalidLlh': 'U001'});0;219936000;14.190921428;40.828875096;85222.6;43947.0;28;-4;-4;0;45.1;66.9
0;0;('X001', {'invalidLlh': 'U001'});0;219937000;14.190921183;40.828875117;85249.6;43974.0;-17;17;-4;0;40.4;59.8
0;0;('X001', {'invalidLlh': 'U001'});0;219938000;14.190921138;40.828875154;85256.2;43980.6;38;-46;2;-4;40.0;59.0
0;0;('X001', {'invalidLlh': 'U001'});0;219939000;14.190921148;40.828875158;85255.5;43979.9;48;-42;-5;-1;39.5;58.5
0;0;('X001', {'invalidLlh': 'U001'});0;219940000;14.190921177;40.828875152;85258.4;43982.8;-23;-48;4;-2;39.5;58.5
0;0;('X001', {'invalidLlh': 'U001'});0;219941000;14.190921189;40.828875123;85250.0;43974.4;-11;23;0;4;39.5;58.5
0;0;('X001', {'invalidLlh': 'U001'});0;219942000;14.190921245;40.828875118;85242.3;43966.7;45;18;3;-3;39.7;58.5
0;0;('X001', {'invalidLlh': 'U001'});0;219943000;14.19092127;40.828875142;85241.4;43965.8;-30;42;4;-2;39.8;58.6
0;0;('X001', {'invalidLlh': 'U001'});0;219944000;14.190921302;40.828875141;85244.2;43968.6;2;41;2;-4;39.4;58.1
0;0;('X001', {'invalidLlh': 'U001'});0;219945000;14.190921311;40.828875154;85243.7;43968.1;11;-46;-3;1;39.3;58.0
0;0;('X001', {'invalidLlh': 'U001'});0;219946000;14.190921339;40.828875142;85240.8;43965.2;39;42;-2;2;39.2;58.0
0;0;('X001', {'invalidLlh': 'U001'});0;219947000;14.190921357;40.828875133;85241.7;43966.1;-43;33;-3;1;39.4;58.1
0;0;('X001', {'invalidLlh': 'U001'});0;219948000;14.190921367;40.828875139;85236.8;43961.2;-33;39;-2;2;39.3;58.2
0;0;('X001', {'invalidLlh': 'U001'});0;219949000;14.190921362;40.828875145;85250.4;43974.7;-38;45;4;-3;38.9;57.5
0;0;('X001', {'invalidLlh': 'U001'});0;219950000;14.190921382;40.828875151;85249.9;43974.2;-18;-49;-1;2;38.9;57.4
0;0;('X001', {'invalidLlh': 'U001'});0;219951000;14.190921387;40.82887514;85249.0;43973.4;-13;40;0;4;39.1;57.5
0;0;('X001', {'invalidLlh': 'U001'});0;219952000;14.190921424;40.828875129;85243.2;43967.6;24;29;2;-4;39.2;57.6
0;0;('X001', {'invalidLlh': 'U001'});0;219953000;14.190921444;40.828875114;85245.2;43969.6;44;14;2;-4;39.4;58.0
0;0;('X001', {'invalidLlh': 'U001'});0;219954000;14.190921415;40.82887509;85246.8;43971.2;15;-10;-2;2;38.9;57.4
0;0;('X001', {'invalidLlh': 'U001'});0;219955000;14.190921449;40.82887507;85244.6;43969.0;49;-30;-4;0;39.0;57.3
0;0;('X001', {'invalidLlh': 'U001'});0;219956000;14.190921453;40.828875059;85243.3;43967.7;-47;-41;3;-3;38.7;57.2
0;0;('X001', {'invalidLlh': 'U001'});0;219957000;14.190921463;40.828875045;85237.2;43961.6;-37;45;2;-4;38.8;57.2
0;0;('X001', {'invalidLlh': 'U001'});0;219958000;14.190921474;40.828875058;85237.9;43962.3;-26;-42;-1;3;38.8;57.4
0;0;('X001', {'invalidLlh': 'U001'});0;219959000;14.190921458;40.828875047;85242.7;43967.1;-42;47;-3;1;38.4;56.9
0;0;('X001', {'invalidLlh': 'U001'});0;219960000;14.190921462;40.828875044;85248.0;43972.4;-38;44;0;4;38.4;56.9
0;0;('X001', {'invalidLlh': 'U001'});0;219961000;14.190921469;40.828875045;85250.8;43975.2;-31;45;-2;2;38.4;56.9
0;0;('X001', {'invalidLlh': 'U001'});0;219962000;14.190921484;40.828875044;85253.1;43977.4;-16;44;1;4;38.5;57.0
0;0;('X001', {'invalidLlh': 'U001'});0;219963000;14.190921455;40.828875024;85251.0;43975.4;-45;24;0;4;38.6;57.0
0;0;('X001', {'invalidLlh': 'U001'});0;219964000;14.190921433;40.828875026;85253.6;43978.0;33;26;-4;0;38.7;57.2
0;0;('X001', {'invalidLlh': 'U001'});0;219965000;14.19092141;40.828875015;85262.7;43987.1;10;15;-3;1;38.8;57.3
0;0;('X001', {'invalidLlh': 'U001'});0;219966000;14.190921444;40.828875003;85270.6;43994.9;44;3;-4;-1;39.0;57.5
0;0;('X001', {'invalidLlh': 'U001'});0;219967000;14.190921227;40.82887512;85282.1;44006.5;27;20;1;-5;35.3;52.4
0;0;('X001', {'invalidLlh': 'U001'});0;219968000;14.190921194;40.828875159;85283.7;44008.1;-6;-41;-3;1;35.2;52.1
0;0;('X001', {'invalidLlh': 'U001'});0;219969000;14.190921196;40.828875178;85278.8;44003.2;-4;-22;-2;2;35.2;52.2
0;0;('X001', {'invalidLlh': 'U001'});0;219970000;14.190921195;40.828875153;85274.9;43999.3;-5;-47;-1;3;34.5;51.3
0;0;('X001', {'invalidLlh': 'U001'});0;219971000;14.19092123;40.828875137;85274.3;43998.7;30;37;3;-3;34.6;51.4
0;0;('X001', {'invalidLlh': 'U001'});0;219972000;14.190921264;40.828875137;85269.4;43993.8;-36;37;4;-2;34.7;51.5
0;0;('X001', {'invalidLlh': 'U001'});0;219973000;14.190921259;40.828875147;85265.9;43990.3;-41;47;-1;3;34.9;51.6
0;0;('X001', {'invalidLlh': 'U001'});0;219974000;14.19092127;40.828875214;85265.3;43989.7;-30;14;3;-3;34.7;51.4
0;0;('X001', {'invalidLlh': 'U001'});0;219975000;14.190921278;40.828875221;85258.2;43982.6;-22;21;2;-4;34.8;51.5
0;0;('X001', {'invalidLlh': 'U001'});0;219976000;14.190921313;40.828875223;85257.8;43982.2;13;23;-2;2;34.9;51.5
0;0;('X001', {'invalidLlh': 'U001'});0;219977000;14.190921319;40.828875209;85260.1;43984.5;19;9;1;-5;35.0;51.6
0;0;('X001', {'invalidLlh': 'U001'});0;219978000;14.190921331;40.828875211;85259.4;43983.8;31;11;4;-2;35.2;51.9
0;0;('X001', {'invalidLlh': 'U001'});0;219979000;14.19092134;40.82887518;85249.6;43974.0;40;-20;-4;0;34.5;50.9
0;0;('X001', {'invalidLlh': 'U001'});0;219979597;14.190921329;40.828875151;85249.7;43974.1;29;-49;-3;1;9798.0;6928.200000000001
0;0;('X001', {'invalidLlh': 'U001'});0;219980000;14.191127639;40.828565823;85249.7;43974.5;39;23;-3;5;397452.9;16970.600000000002
0;0;('X001', {'invalidLlh': 'U001'});0;219981000;14.190915365;40.828902518;77691.5;36415.9;-35;18;5;-1;15371.6;21970.4
0;0;('X001', {'invalidLlh': 'U001'});0;219982000;14.190938763;40.828876119;77701.2;36425.6;-37;19;2;-4;7046.6;8360.800000000001
0;0;('X001', {'invalidLlh': 'U001'});0;219983000;14.190939304;40.828873929;76657.8;35382.2;4;29;-2;2;6012.400000000001;7762.700000000001
0;0;('X001', {'invalidLlh': 'U001'});0;219984000;14.190936369;40.828876806;77185.9;35910.3;-31;6;-1;3;4916.3;6575.700000000001
0;0;('X001', {'invalidLlh': 'U001'});0;219985000;14.190934339;40.828877226;77192.5;35916.9;39;26;-5;-1;4246.0;5796.8
0;0;('X001', {'invalidLlh': 'U001'});0;219986000;14.190932076;40.82887741;76414.3;35138.7;-24;10;3;-3;3763.3;5187.900000000001
0;0;('X001', {'invalidLlh': 'U001'});0;219987000;14.190931155;40.828877586;75780.5;34504.9;-45;-14;-5;-1;3418.3;4738.3
0;0;('X001', {'invalidLlh': 'U001'});0;219988000;14.190930601;40.828877581;75326.2;34050.6;1;-19;2;-4;3154.6;4389.1
0;0;('X001', {'invalidLlh': 'U001'});0;219989000;14.190930419;40.828877515;74968.0;33692.4;19;15;0;4;2945.1;4109.400000000001
0;0;('X001', {'invalidLlh': 'U001'});0;219990000;14.190930445;40.828877397;74648.6;33373.0;45;-3;-4;0;2772.8;3875.5
0;0;('X001', {'invalidLlh': 'U001'});0;219991000;14.190930617;40.82887729;74401.1;33125.5;17;-10;1;-5;2628.9;3678.0
0;0;('X001', {'invalidLlh': 'U001'});0;219992000;14.190931021;40.828876755;74140.7;32865.0;21;-45;-3;0;2507.2;3511.4
0;0;('X001', {'invalidLlh': 'U001'});0;219993000;14.190931403;40.828876316;73912.7;32637.1;3;16;-3;1;2400.8;3363.9
0;0;('X001', {'invalidLlh': 'U001'});0;219994000;14.190931689;40.828875966;73724.7;32449.1;-11;-34;-3;1;2306.8;3235.6
0;0;('X001', {'invalidLlh': 'U001'});0;219995000;14.190931909;40.828875638;73563.3;32287.7;9;38;3;-3;2223.1;3121.5
0;0;('X001', {'invalidLlh': 'U001'});0;219996000;14.19091251;40.82888021;73376.8;32101.2;10;10;-2;2;1779.7;2226.8
0;0;('X001', {'invalidLlh': 'U001'});0;219997000;14.19091906;40.828877284;77178.2;35902.6;-40;-16;2;-4;858.3;1048.6
0;0;('X001', {'invalidLlh': 'U001'});0;219998000;14.1909191;40.828876365;78574.2;37298.5;0;-35;2;-5;572.7;721.3
0;0;('X001', {'invalidLlh': 'U001'});0;219999000;14.190919062;40.828875594;79423.8;38148.2;-38;-6;-2;2;438.9;561.0
0;0;('X001', {'invalidLlh': 'U001'});0;220000000;14.190919248;40.828874725;80118.2;38842.5;48;25;2;-5;335.7;440.6
0;0;('X001', {'invalidLlh': 'U001'});0;220001000;14.190919464;40.828874011;80590.7;39315.1;-36;11;-3;1;276.7;368.9
0;0;('X001', {'invalidLlh': 'U001'});0;220002000;14.19091966;40.828873498;80926.4;39650.8;-40;-2;4;-2;239.5;322.9
0;0;('X001', {'invalidLlh': 'U001'});0;220003000;14.190919787;40.828873079;81187.9;39912.3;-13;-21;-1;3;214.2;291.6
0;0;('X001', {'invalidLlh': 'U001'});0;220004000;14.190919902;40.828872676;81395.4;40119.8;2;-24;4;-2;196.3;269.2
0;0;('X001', {'invalidLlh': 'U001'});0;220005000;14.190919978;40.828872322;81572.3;40296.7;-22;22;3;-3;182.8;252.4
0;0;('X001', {'invalidLlh': 'U001'});0;220006000;14.190920064;40.828872015;81731.3;40455.7;-36;15;3;-3;172.7;240.4
0;0;('X001', {'invalidLlh': 'U001'});0;220007000;14.190920148;40.828871749;81876.9;40601.3;48;49;-1;3;164.8;231.2
0;0;('X001', {'invalidLlh': 'U001'});0;220008000;14.190920234;40.828871486;82004.5;40728.8;34;-14;5;-2;158.4;222.8
0;0;('X001', {'invalidLlh': 'U001'});0;220009000;14.19092027;40.828871309;82105.7;40830.1;-30;9;-3;1;153.0;215.2
0;0;('X001', {'invalidLlh': 'U001'});0;220010000;14.190920267;40.828871334;82198.0;40922.4;-33;34;0;4;148.2;208.6
0;0;('X001', {'invalidLlh': 'U001'});0;220011000;14.190920289;40.828871393;82292.0;41016.4;-11;-7;0;4;144.1;203.1
0;0;('X001', {'invalidLlh': 'U001'});0;220012000;14.190920328;40.828871394;82382.1;41106.5;28;-6;1;5;140.6;198.4
0;0;('X001', {'invalidLlh': 'U001'});0;220013000;14.190920361;40.828871333;82472.4;41196.8;-39;33;4;-2;137.6;194.2
0;0;('X001', {'invalidLlh': 'U001'});0;220014000;14.190920424;40.828871249;82548.8;41273.2;24;49;-2;2;134.7;190.3
0;0;('X001', {'invalidLlh': 'U001'});0;220015000;14.190920506;40.828871131;82621.9;41346.3;6;31;-1;3;132.0;186.8
0;0;('X001', {'invalidLlh': 'U001'});0;220016000;14.190920589;40.828870991;82696.3;41420.6;-11;-9;3;-4;129.7;183.7
0;0;('X001', {'invalidLlh': 'U001'});0;220017000;14.190920647;40.828870837;82757.1;41481.5;47;37;1;-5;127.7;180.9
0;0;('X001', {'invalidLlh': 'U001'});0;220018000;14.190920734;40.828870649;82809.2;41533.6;34;49;2;-4;125.9;178.4
0;0;('X001', {'invalidLlh': 'U001'});0;220019000;14.190920805;40.828870464;82856.0;41580.4;5;-36;0;4;124.2;175.9
0;0;('X001', {'invalidLlh': 'U001'});0;220020000;14.19092086;40.828870322;82895.0;41619.4;-40;22;0;4;122.6;173.5
0;0;('X001', {'invalidLlh': 'U001'});0;220021000;14.190920907;40.828870201;82929.9;41654.3;7;1;-1;3;121.1;171.2
0;0;('X001', {'invalidLlh': 'U001'});0;220022000;14.190920927;40.828870074;82958.5;41682.9;27;-26;-5;-1;119.7;169.2
0;0;('X001', {'invalidLlh': 'U001'});0;220023000;14.190920973;40.828870011;82983.3;41707.7;-27;11;3;-3;118.2;166.6
0;0;('X001', {'invalidLlh': 'U001'});0;220024000;14.19092099;40.82886991;83005.1;41729.5;-10;10;1;-5;116.7;164.2
0;0;('X001', {'invalidLlh': 'U001'});0;220025000;14.190920964;40.828869788;83025.1;41749.5;-36;-12;1;5;115.3;162.2
0;0;('X001', {'invalidLlh': 'U001'});0;220026000;14.19092095;40.8288697;83043.1;41767.4;50;0;1;4;114.1;160.9
0;0;('X001', {'invalidLlh': 'U001'});0;220027000;14.190920936;40.828869719;83140.2;41864.6;36;19;2;-4;110.5;155.4
0;0;('X001', {'invalidLlh': 'U001'});0;220028000;14.190920989;40.82886978;83283.4;42007.7;-11;-20;4;-3;108.4;153.0
0;0;('X001', {'invalidLlh': 'U001'});0;220029000;14.190921087;40.828869821;83439.1;42163.5;-13;21;1;-5;107.5;152.0
0;0;('X001', {'invalidLlh': 'U001'});0;220030000;14.190921174;40.828869858;83598.0;42322.3;-26;-42;0;3;106.4;150.7
0;0;('X001', {'invalidLlh': 'U001'});0;220031000;14.19092126;40.828869903;83735.9;42460.2;-40;3;-1;2;105.3;149.3
0;0;('X001', {'invalidLlh': 'U001'});0;220032000;14.190921362;40.828869945;83852.7;42577.1;-38;45;-3;1;104.2;147.7
0;0;('X001', {'invalidLlh': 'U001'});0;220033000;14.190921469;40.828869904;83949.4;42673.7;-31;4;4;-3;103.4;146.4
0;0;('X001', {'invalidLlh': 'U001'});0;220034000;14.190921579;40.828869829;84023.8;42748.2;-21;29;-2;2;102.7;145.2
0;0;('X001', {'invalidLlh': 'U001'});0;220035000;14.190921668;40.828869738;84071.5;42795.8;-32;38;5;-2;102.1;143.6
0;0;('X001', {'invalidLlh': 'U001'});0;220036000;14.19092172;40.828869649;84097.4;42821.8;20;49;4;-2;101.4;142.1
0;0;('X001', {'invalidLlh': 'U001'});0;220037000;14.190921745;40.828869558;84099.9;42824.2;45;-42;-1;2;100.3;140.7
0;0;('X001', {'invalidLlh': 'U001'});0;220038000;14.190921765;40.828869503;84090.4;42814.8;-35;3;4;-2;99.2;139.2
0;0;('X001', {'invalidLlh': 'U001'});0;220039000;14.1909218;40.828869465;84075.3;42799.6;0;-35;3;-4;98.4;137.9
0;0;('X001', {'invalidLlh': 'U001'});0;220040000;14.190921809;40.828869553;84063.9;42788.3;9;-47;-1;3;97.5;136.6
0;0;('X001', {'invalidLlh': 'U001'});0;220041000;14.190921811;40.82886973;84040.4;42764.8;11;30;4;-2;96.5;135.4
0;0;('X001', {'invalidLlh': 'U001'});0;220042000;14.19092184;40.828869963;84005.5;42729.9;40;-37;-5;-1;96.1;135.0
0;0;('X001', {'invalidLlh': 'U001'});0;220043000;14.19092187;40.828870235;83965.0;42689.4;-30;35;0;4;95.5;134.6
0;0;('X001', {'invalidLlh': 'U001'});0;220044000;14.190921881;40.828870485;83922.8;42647.2;-19;-15;-2;2;94.3;133.8
0;0;('X001', {'invalidLlh': 'U001'});0;220045000;14.190921933;40.828870775;83907.5;42631.9;33;-25;-5;-1;93.4;133.1
0;0;('X001', {'invalidLlh': 'U001'});0;220046000;14.190921956;40.828870957;83888.5;42612.9;-44;-43;5;-1;92.5;131.4
0;0;('X001', {'invalidLlh': 'U001'});0;220047000;14.190921933;40.828871129;83851.9;42576.2;33;29;-1;2;91.9;130.0
0;0;('X001', {'invalidLlh': 'U001'});0;220048000;14.190921917;40.828871292;83814.6;42539.0;17;-8;-4;0;91.5;129.0
0;0;('X001', {'invalidLlh': 'U001'});0;220049000;14.190921863;40.828871392;83770.0;42494.4;-37;-8;0;4;91.2;128.0
0;0;('X001', {'invalidLlh': 'U001'});0;220050000;14.190921795;40.828871399;83724.2;42448.6;-5;-1;2;-4;90.7;127.6
0;0;('X001', {'invalidLlh': 'U001'});0;220051000;14.19092178;40.828871303;83689.9;42414.3;-20;3;-1;3;89.9;126.6
0;0;('X001', {'invalidLlh': 'U001'});0;220052000;14.190921731;40.828871146;83663.2;42387.6;31;46;2;-4;89.3;125.4
0;0;('X001', {'invalidLlh': 'U001'});0;220053000;14.190921695;40.828870956;83649.9;42374.3;-5;-44;-1;3;88.7;124.6
0;0;('X001', {'invalidLlh': 'U001'});0;220054000;14.190921693;40.828870732;83649.5;42373.8;-7;32;5;-2;88.2;124.0
0;0;('X001', {'invalidLlh': 'U001'});0;220055000;14.190921704;40.828870507;83652.0;42376.4;4;7;0;4;87.6;123.2
0;0;('X001', {'invalidLlh': 'U001'});0;220056000;14.190921613;40.828870362;83651.8;42376.2;13;-38;-2;2;87.1;122.7
0;0;('X001', {'invalidLlh': 'U001'});0;220057000;14.19092155;40.828870407;83711.0;42435.4;-50;7;0;4;85.0;119.6
0;0;('X001', {'invalidLlh': 'U001'});0;220058000;14.190921559;40.828870503;83798.5;42522.9;-41;3;5;-1;84.0;118.2
0;0;('X001', {'invalidLlh': 'U001'});0;220059000;14.190921621;40.828870578;83890.2;42614.6;21;-22;2;-4;83.6;117.7
0;0;('X001', {'invalidLlh': 'U001'});0;220060000;14.190921647;40.828870732;83987.8;42712.2;47;32;-2;2;82.8;116.6
0;0;('X001', {'invalidLlh': 'U001'});0;220061000;14.190921685;40.828870858;84080.7;42805.1;-15;-42;-3;1;82.4;115.2
0;0;('X001', {'invalidLlh': 'U001'});0;220062000;14.190921767;40.828870989;84172.8;42897.2;-33;-11;-2;2;82.2;114.4
0;0;('X001', {'invalidLlh': 'U001'});0;220063000;14.19092188;40.828871127;84262.1;42986.5;-20;27;1;-5;81.8;113.9
0;0;('X001', {'invalidLlh': 'U001'});0;220064000;14.190921973;40.828871233;84348.3;43072.7;-27;33;3;-3;81.2;113.9
0;0;('X001', {'invalidLlh': 'U001'});0;220065000;14.190922048;40.828871296;84400.2;43124.6;48;-4;2;-4;81.1;114.1
0;0;('X001', {'invalidLlh': 'U001'});0;220066000;14.190922088;40.828871416;84432.6;43157.0;-12;16;-4;0;81.2;113.4
0;0;('X001', {'invalidLlh': 'U001'});0;220067000;14.190922125;40.828871569;84456.5;43180.9;25;-31;-5;-1;81.1;112.8
0;0;('X001', {'invalidLlh': 'U001'});0;220068000;14.190922157;40.828871718;84479.3;43203.7;-43;18;3;-3;80.6;112.4
0;0;('X001', {'invalidLlh': 'U001'});0;220069000;14.190922225;40.828871846;84503.1;43227.5;25;46;1;-5;80.0;112.1
0;0;('X001', {'invalidLlh': 'U001'});0;220070000;14.190922294;40.828871994;84520.1;43244.5;-6;-6;1;5;79.6;112.0
0;0;('X001', {'invalidLlh': 'U001'});0;220071000;14.19092234;40.828872116;84540.0;43264.4;40;16;0;4;79.0;111.2
0;0;('X001', {'invalidLlh': 'U001'});0;220072000;14.190922376;40.828872223;84553.7;43278.1;-24;23;-3;1;78.6;110.6
0;0;('X001', {'invalidLlh': 'U001'});0;220073000;14.1909224;40.828872343;84566.8;43291.2;0;43;-2;2;78.3;110.4
0;0;('X001', {'invalidLlh': 'U001'});0;220074000;14.19092242;40.828872441;84576.0;43300.4;20;41;0;4;78.1;110.1
0;0;('X001', {'invalidLlh': 'U001'});0;220075000;14.190922437;40.828872525;84572.0;43296.3;37;25;0;3;77.8;109.2
0;0;('X001', {'invalidLlh': 'U001'});0;220076000;14.190922495;40.828872616;84571.3;43295.7;-5;16;3;-3;77.4;108.1
0;0;('X001', {'invalidLlh': 'U001'});0;220077000;14.190922501;40.828872706;84571.5;43295.9;1;6;-5;-1;77.6;108.6
0;0;('X001', {'invalidLlh': 'U001'});0;220078000;14.19092251;40.828872787;84566.7;43291.1;10;-13;-3;1;77.9;109.4
0;0;('X001', {'invalidLlh': 'U001'});0;220079000;14.190922549;40.828872843;84558.0;43282.4;49;43;0;4;77.5;108.4
0;0;('X001', {'invalidLlh': 'U001'});0;220080000;14.190922551;40.828872848;84547.5;43271.9;-49;48;-5;-1;77.2;107.7
0;0;('X001', {'invalidLlh': 'U001'});0;220081000;14.190922547;40.828872844;84536.9;43261.3;47;44;-1;3;77.2;107.1
0;0;('X001', {'invalidLlh': 'U001'});0;220082000;14.190922535;40.828872896;84524.1;43248.4;35;-4;1;4;77.0;106.5
0;0;('X001', {'invalidLlh': 'U001'});0;220083000;14.190922531;40.828872959;84505.5;43229.9;31;-41;5;-1;76.4;106.3
0;0;('X001', {'invalidLlh': 'U001'});0;220084000;14.19092253;40.828872983;84491.3;43215.7;30;-17;3;-3;75.9;106.2
0;0;('X001', {'invalidLlh': 'U001'});0;220085000;14.190922525;40.828873015;84479.6;43204.0;25;15;-4;0;75.7;105.8
0;0;('X001', {'invalidLlh': 'U001'});0;220086000;14.190922556;40.828873048;84473.8;43198.2;-44;48;-2;2;75.5;105.7
0;0;('X001', {'invalidLlh': 'U001'});0;220087000;14.190921571;40.828874839;85199.5;43923.9;-29;39;-5;-1;49.8;70.8
0;0;('X001', {'invalidLlh': 'U001'});0;220088000;14.190921612;40.828874815;85227.3;43951.7;12;15;3;-3;39.5;56.9
0;0;('X001', {'invalidLlh': 'U001'});0;220089000;14.190921601;40.828874783;85232.1;43956.5;1;-17;1;-5;37.9;55.2
0;0;('X001', {'invalidLlh': 'U001'});0;220090000;14.190921608;40.828874787;85238.7;43963.1;8;-13;-3;1;37.9;55.1
0;0;('X001', {'invalidLlh': 'U001'});0;220091000;14.190921611;40.828874821;85235.6;43960.0;11;21;-4;0;38.0;55.1
0;0;('X001', {'invalidLlh': 'U001'});0;220092000;14.190921616;40.828874845;85237.3;43961.7;16;45;3;-3;38.1;55.2
0;0;('X001', {'invalidLlh': 'U001'});0;220093000;14.190921649;40.828874812;85231.3;43955.7;49;12;3;-3;38.1;55.4
0;0;('X001', {'invalidLlh': 'U001'});0;220094000;14.190921691;40.828874774;85228.9;43953.3;-9;-26;-1;3;38.1;55.4
0;0;('X001', {'invalidLlh': 'U001'});0;220095000;14.190921642;40.828874828;85245.5;43969.8;42;28;5;-2;37.1;55.4
0;0;('X001', {'invalidLlh': 'U001'});0;220096000;14.190921654;40.828874868;85245.5;43969.9;-46;-32;5;-1;37.1;55.2
0;0;('X001', {'invalidLlh': 'U001'});0;220097000;14.190921665;40.828874898;85246.1;43970.5;-35;-2;1;5;37.2;55.4
0;0;('X001', {'invalidLlh': 'U001'});0;220098000;14.190921655;40.828874899;85243.0;43967.4;-45;-1;0;4;37.4;55.6
0;0;('X001', {'invalidLlh': 'U001'});0;220099000;14.190921662;40.828874899;85237.3;43961.7;-38;-1;3;-3;36.1;54.5
0;0;('X001', {'invalidLlh': 'U001'});0;220100000;14.190921688;40.828874907;85240.5;43964.9;-12;7;-5;-1;36.0;54.4
0;0;('X001', {'invalidLlh': 'U001'});0;220101000;14.190921677;40.828874928;85236.2;43960.6;-23;28;2;-4;36.2;54.4
0;0;('X001', {'invalidLlh': 'U001'});0;220102000;14.190921719;40.828874927;85231.9;43956.3;19;27;-1;3;36.2;54.5
0;0;('X001', {'invalidLlh': 'U001'});0;220103000;14.190921714;40.828874914;85227.0;43951.4;14;14;0;4;36.3;54.6
0;0;('X001', {'invalidLlh': 'U001'});0;220104000;14.190921691;40.828874914;85227.3;43951.7;-9;14;3;-3;36.3;54.5
0;0;('X001', {'invalidLlh': 'U001'});0;220105000;14.190921648;40.828874947;85237.9;43962.3;48;47;-1;3;35.7;53.6
0;0;('X001', {'invalidLlh': 'U001'});0;220106000;14.190921622;40.828874952;85243.1;43967.5;22;-48;1;5;35.7;53.5
0;0;('X001', {'invalidLlh': 'U001'});0;220107000;14.190921646;40.828874963;85243.6;43968.0;46;-37;-4;0;35.8;53.6
0;0;('X001', {'invalidLlh': 'U001'});0;220108000;14.190921659;40.828874981;85242.2;43966.6;-41;-19;2;-4;35.9;53.7
0;0;('X001', {'invalidLlh': 'U001'});0;220109000;14.190921675;40.82887494;85240.3;43964.7;-25;40;3;-3;35.2;53.0
0;0;('X001', {'invalidLlh': 'U001'});0;220110000;14.190921676;40.828874935;85237.8;43962.2;-24;35;-2;2;35.2;53.1
0;0;('X001', {'invalidLlh': 'U001'});0;220111000;14.190921699;40.828874923;85233.4;43957.8;-1;23;4;-2;35.4;53.2
0;0;('X001', {'invalidLlh': 'U001'});0;220112000;14.190921712;40.828874905;85228.7;43953.1;12;5;-3;1;35.5;53.4
0;0;('X001', {'invalidLlh': 'U001'});0;220113000;14.190921726;40.828874903;85223.1;43947.5;26;3;1;-5;35.6;53.4
0;0;('X001', {'invalidLlh': 'U001'});0;220114000;14.190921723;40.828874888;85221.7;43946.1;23;-12;-3;1;35.8;53.7
0;0;('X001', {'invalidLlh': 'U001'});0;220115000;14.190921736;40.828874883;85226.3;43950.7;36;-17;3;-3;36.0;53.9
0;0;('X001', {'invalidLlh': 'U001'});0;220116000;14.190921745;40.828874906;85228.3;43952.7;45;6;3;-3;36.1;54.2
0;0;('X001', {'invalidLlh': 'U001'});0;220117000;14.190921588;40.828874988;85251.3;43975.7;-12;-12;3;-3;34.0;50.6
0;0;('X001', {'invalidLlh': 'U001'});0;220118000;14.190921571;40.828874967;85255.1;43979.5;-29;-33;1;-5;34.1;50.6
0;0;('X001', {'invalidLlh': 'U001'});0;220119000;14.190921604;40.828874919;85249.3;43973.6;4;19;3;-4;34.2;50.6
0;0;('X001', {'invalidLlh': 'U001'});0;220120000;14.190921632;40.82887492;85243.0;43967.3;32;20;0;3;34.4;50.8
0;0;('X001', {'invalidLlh': 'U001'});0;220121000;14.190921657;40.828874963;85242.6;43967.0;-43;-37;-4;0;33.8;50.1
0;0;('X001', {'invalidLlh': 'U001'});0;220122000;14.190921683;40.828874968;85239.9;43964.2;-17;-32;-1;2;33.9;50.1
0;0;('X001', {'invalidLlh': 'U001'});0;220123000;14.19092171;40.828874972;85242.6;43967.0;10;-28;-4;0;34.0;50.2
0;0;('X001', {'invalidLlh': 'U001'});0;220124000;14.190921745;40.828874985;85246.0;43970.4;45;-15;0;4;34.1;49.7
0;0;('X001', {'invalidLlh': 'U001'});0;220125000;14.190921774;40.828874963;85245.6;43970.0;-26;-37;-4;0;34.2;49.7
0;0;('X001', {'invalidLlh': 'U001'});0;220126000;14.190921813;40.828874968;85249.0;43973.4;13;-32;0;4;34.3;49.8
0;0;('X001', {'invalidLlh': 'U001'});0;220127000;14.190921847;40.828875;85245.8;43970.2;47;0;-2;2;34.4;49.9
0;0;('X001', {'invalidLlh': 'U001'});0;220128000;14.190921862;40.828875012;85247.1;43971.5;-38;12;1;5;34.4;49.9
0;0;('X001', {'invalidLlh': 'U001'});0;220129000;14.190921837;40.828875026;85250.3;43974.7;37;26;3;-3;34.1;49.9
0;0;('X001', {'invalidLlh': 'U001'});0;220130000;14.190921839;40.828875032;85253.3;43977.6;39;32;3;-4;34.2;50.0
0;0;('X001', {'invalidLlh': 'U001'});0;220131000;14.190921854;40.828875007;85255.8;43980.2;-46;7;-2;2;34.3;50.0
0;0;('X001', {'invalidLlh': 'U001'});0;220132000;14.190921875;40.828875017;85259.8;43984.2;-25;17;-2;2;34.4;50.1
0;0;('X001', {'invalidLlh': 'U001'});0;220133000;14.190921874;40.828875033;85265.2;43989.6;-26;33;2;-4;34.6;50.3
0;0;('X001', {'invalidLlh': 'U001'});0;220134000;14.190921827;40.828875048;85268.8;43993.1;27;48;-2;1;33.6;49.8
0;0;('X001', {'invalidLlh': 'U001'});0;220135000;14.190921838;40.828875033;85267.5;43991.9;38;33;-5;-1;33.7;49.8
0;0;('X001', {'invalidLlh': 'U001'});0;220136000;14.190921863;40.828875005;85269.6;43994.0;-37;5;-4;0;33.8;49.9
0;0;('X001', {'invalidLlh': 'U001'});0;220137000;14.190921876;40.828875003;85275.4;43999.8;-24;3;4;-2;34.0;50.1
0;0;('X001', {'invalidLlh': 'U001'});0;220138000;14.190921865;40.828875018;85280.2;44004.6;-35;18;2;-4;34.0;50.3
0;0;('X001', {'invalidLlh': 'U001'});0;220139000;14.190921874;40.828875061;85283.0;44007.4;-26;-39;0;4;34.2;50.5
0;0;('X001', {'invalidLlh': 'U001'});0;220140000;14.190921834;40.828875042;85279.4;44003.8;34;42;4;-2;33.5;49.6
0;0;('X001', {'invalidLlh': 'U001'});0;220141000;14.190921829;40.828875033;85273.8;43998.2;29;33;-2;2;33.6;49.6
0;0;('X001', {'invalidLlh': 'U001'});0;220142000;14.190921833;40.828875018;85275.9;44000.3;33;18;-1;3;33.8;49.7
0;0;('X001', {'invalidLlh': 'U001'});0;220143000;14.190921857;40.828875024;85276.1;44000.5;-43;24;1;-5;33.4;48.9
0;0;('X001', {'invalidLlh': 'U001'});0;220144000;14.190921866;40.82887503;85271.0;43995.4;-34;30;0;4;33.6;49.0
0;0;('X001', {'invalidLlh': 'U001'});0;220145000;14.190921891;40.828875033;85273.8;43998.2;-9;33;-2;2;33.8;49.2
0;0;('X001', {'invalidLlh': 'U001'});0;220146000;14.190921676;40.828875047;85256.2;43980.5;-24;47;2;-5;32.3;48.4
0;0;('X001', {'invalidLlh': 'U001'});0;220147000;14.190921599;40.828875068;85264.8;43989.1;-1;-32;-2;1;31.2;46.6
0;0;('X001', {'invalidLlh': 'U001'});0;220148000;14.190921565;40.828875081;85272.6;43997.0;-35;-19;-4;0;31.4;46.7
0;0;('X001', {'invalidLlh': 'U001'});0;220149000;14.190921592;40.828875123;85274.6;43999.0;-8;23;-4;0;30.7;45.9
0;0;('X001', {'invalidLlh': 'U001'});0;220150000;14.190921617;40.828875149;85271.0;43995.3;17;49;0;3;30.8;46.1
0;0;('X001', {'invalidLlh': 'U001'});0;220151000;14.190921624;40.828875118;85277.3;44001.7;24;18;3;-3;30.8;46.0
0;0;('X001', {'invalidLlh': 'U001'});0;220152000;14.190921639;40.828875076;85278.4;44002.7;39;-24;4;-3;30.9;46.2
0;0;('X001', {'invalidLlh': 'U001'});0;220153000;14.190921657;40.828875058;85281.2;44005.5;-43;-42;2;-5;31.1;46.5
0;0;('X001', {'invalidLlh': 'U001'});0;220154000;14.19092169;40.828875054;85277.1;44001.5;-10;-46;1;-5;32.1;45.5
0;0;('X001', {'invalidLlh': 'U001'});0;220154837;14.190921731;40.828875048;85278.4;44002.7;31;48;4;-3;13717.1;9699.5
0;0;('X001', {'invalidLlh': 'U001'});0;220155117;14.190921731;40.828875048;85278.4;44002.7;31;48;4;-3;15839.2;11200.0
0;0;('X001', {'invalidLlh': 'U001'});0;220155500;14.190922404;40.828913101;83995.4;42719.8;4;1;4;-2;39352.4;54278.0
0;0;('X001', {'invalidLlh': 'U001'});0;220156000;14.190929002;40.828887147;83206.8;41931.2;2;47;-2;2;15198.300000000001;18334.8
0;0;('X001', {'invalidLlh': 'U001'});0;220157000;14.190932308;40.828872746;80382.4;39106.8;8;46;4;-2;9018.4;12147.1
0;0;('X001', {'invalidLlh': 'U001'});0;220158000;14.190932902;40.828870247;79706.2;38430.6;2;47;2;-4;6296.400000000001;8657.0
0;0;('X001', {'invalidLlh': 'U001'});0;220159000;14.190933163;40.828869272;79566.5;38290.9;-37;-28;-5;-1;5086.5;7058.0
0;0;('X001', {'invalidLlh': 'U001'});0;220160000;14.190934018;40.828867165;80109.2;38833.6;18;-35;2;-4;4407.8;6184.900000000001
0;0;('X001', {'invalidLlh': 'U001'});0;220161000;14.190936188;40.828867056;79919.1;38643.5;-12;-44;1;-5;3879.9;5454.8
0;0;('X001', {'invalidLlh': 'U001'});0;220162000;14.190936497;40.828868194;79390.8;38115.2;-3;-6;-2;2;3591.1;5028.1
0;0;('X001', {'invalidLlh': 'U001'});0;220163000;14.190936505;40.828869193;78965.4;37689.8;5;-7;4;-2;3322.8;4654.3
0;0;('X001', {'invalidLlh': 'U001'});0;220164000;14.190936337;40.828868903;78969.0;37693.4;37;3;0;4;3107.6;4354.900000000001
0;0;('X001', {'invalidLlh': 'U001'});0;220165000;14.190936208;40.828868651;78966.7;37691.1;8;-49;-3;1;2929.5;4107.3
0;0;('X001', {'invalidLlh': 'U001'});0;220166000;14.190936145;40.828868306;78985.5;37709.9;45;6;5;-1;2773.9;3892.7
0;0;('X001', {'invalidLlh': 'U001'});0;220167000;14.19093607;40.828867994;78989.0;37713.4;-30;-6;0;4;2640.5;3707.9
0;0;('X001', {'invalidLlh': 'U001'});0;220168000;14.190935951;40.828867797;78988.1;37712.5;-49;-3;1;-5;2522.5;3544.6
0;0;('X001', {'invalidLlh': 'U001'});0;220169000;14.190935906;40.828867545;78963.6;37688.0;6;45;-4;0;2420.0;3402.5
0;0;('X001', {'invalidLlh': 'U001'});0;220170000;14.190935904;40.828867282;78945.4;37669.8;4;-18;4;-2;2328.6;3275.6
0;0;('X001', {'invalidLlh': 'U001'});0;220171000;14.190935849;40.828867088;78943.0;37667.4;49;-12;0;4;2247.0;3163.2
0;0;('X001', {'invalidLlh': 'U001'});0;220172000;14.190935814;40.828866872;78925.1;37649.5;14;-28;1;5;2173.4;3061.0
0;0;('X001', {'invalidLlh': 'U001'});0;220173000;14.190935768;40.82886667;78909.1;37633.5;-32;-30;1;-5;2106.8;2968.7
0;0;('X001', {'invalidLlh': 'U001'});0;220174000;14.190935707;40.828866498;78879.1;37603.5;7;-2;1;-5;2046.4;2883.9
0;0;('X001', {'invalidLlh': 'U001'});0;220175000;14.190935613;40.828866371;78842.3;37566.7;13;-29;3;-3;1991.0;2805.9
0;0;('X001', {'invalidLlh': 'U001'});0;220176000;14.190916385;40.82888054;77264.8;35989.2;-15;40;-2;2;1806.1;2195.0
0;0;('X001', {'invalidLlh': 'U001'});0;220177000;14.190925524;40.828877879;80504.4;39228.8;24;-21;4;-2;820.0;983.8
0;0;('X001', {'invalidLlh': 'U001'});0;220178000;14.1909259;40.82887854;81523.2;40247.6;0;40;2;-4;543.6;669.5
0;0;('X001', {'invalidLlh': 'U001'});0;220179000;14.190925893;40.828879049;82115.2;40839.5;-7;49;2;-5;415.3;518.6
0;0;('X001', {'invalidLlh': 'U001'});0;220180000;14.19092582;40.828879433;82516.3;41240.7;20;33;3;-3;339.7;429.0
0;0;('X001', {'invalidLlh': 'U001'});0;220181000;14.190925736;40.828879756;82842.9;41567.3;36;-44;-1;3;274.7;355.7
0;0;('X001', {'invalidLlh': 'U001'});0;220182000;14.190925552;40.828879907;83079.3;41803.7;-48;7;3;-3;234.6;308.6
0;0;('X001', {'invalidLlh': 'U001'});0;220183000;14.190925357;40.828880016;83266.3;41990.7;-43;16;3;-3;208.1;276.9
0;0;('X001', {'invalidLlh': 'U001'});0;220184000;14.190925154;40.828880097;83419.3;42143.6;-46;-3;3;-4;189.5;254.6
0;0;('X001', {'invalidLlh': 'U001'});0;220185000;14.190924938;40.828880191;83534.9;42259.3;38;-9;-1;3;176.1;238.4
0;0;('X001', {'invalidLlh': 'U001'});0;220186000;14.190924715;40.82888027;83624.7;42349.0;15;-30;-3;0;165.9;226.0
0;0;('X001', {'invalidLlh': 'U001'});0;220187000;14.190924497;40.82888033;83690.0;42414.4;-3;30;0;4;157.9;216.3
0;0;('X001', {'invalidLlh': 'U001'});0;220188000;14.190924306;40.828880379;83746.0;42470.4;6;-21;0;4;151.7;208.5
0;0;('X001', {'invalidLlh': 'U001'});0;220189000;14.190924123;40.828880424;83791.7;42516.0;23;24;-3;0;146.5;202.3
0;0;('X001', {'invalidLlh': 'U001'});0;220190000;14.190923959;40.828880508;83831.3;42555.7;-41;8;3;-3;141.8;196.9
0;0;('X001', {'invalidLlh': 'U001'});0;220191000;14.19092382;40.828880596;83866.3;42590.6;20;-4;3;-4;137.9;192.1
0;0;('X001', {'invalidLlh': 'U001'});0;220192000;14.190923697;40.828880668;83890.1;42614.5;-3;-32;1;5;134.5;187.8
0;0;('X001', {'invalidLlh': 'U001'});0;220193000;14.190923604;40.828880693;83905.8;42630.2;4;-7;-2;2;131.6;183.6
0;0;('X001', {'invalidLlh': 'U001'});0;220194000;14.190923524;40.828880635;83915.8;42640.2;24;35;-2;2;129.3;180.1
0;0;('X001', {'invalidLlh': 'U001'});0;220195000;14.190923481;40.828880525;83937.8;42662.2;-19;25;-2;2;126.9;176.7
0;0;('X001', {'invalidLlh': 'U001'});0;220196000;14.190923474;40.828880356;83958.0;42682.4;-26;-44;0;4;124.7;174.2
0;0;('X001', {'invalidLlh': 'U001'});0;220197000;14.190923461;40.828880128;83981.7;42706.1;-39;28;-3;1;122.7;172.1
0;0;('X001', {'invalidLlh': 'U001'});0;220198000;14.190923464;40.828879932;84010.2;42734.5;-36;32;2;-5;120.9;170.0
0;0;('X001', {'invalidLlh': 'U001'});0;220199000;14.190923478;40.828879752;84028.2;42752.6;-22;-48;2;-4;119.2;167.8
0;0;('X001', {'invalidLlh': 'U001'});0;220200000;14.190923502;40.828879548;84041.5;42765.8;2;48;5;-2;117.4;165.4
0;0;('X001', {'invalidLlh': 'U001'});0;220201000;14.190923534;40.828879306;84042.3;42766.7;34;6;3;-3;115.7;163.1
0;0;('X001', {'invalidLlh': 'U001'});0;220202000;14.190923544;40.82887904;84033.3;42757.7;44;40;3;-3;114.2;161.3
0;0;('X001', {'invalidLlh': 'U001'});0;220203000;14.190923558;40.828878762;84023.9;42748.3;-42;-38;-1;3;112.8;159.5
0;0;('X001', {'invalidLlh': 'U001'});0;220204000;14.190923563;40.828878429;84018.2;42742.6;-37;29;2;-4;111.8;157.8
0;0;('X001', {'invalidLlh': 'U001'});0;220205000;14.190923569;40.82887809;84003.2;42727.6;-31;-10;2;-4;111.1;156.2
0;0;('X001', {'invalidLlh': 'U001'});0;220206000;14.190923519;40.828877795;83975.4;42699.8;19;-5;4;-2;110.1;154.5
0;0;('X001', {'invalidLlh': 'U001'});0;220207000;14.190923456;40.828877791;84053.3;42777.7;-44;-9;3;-3;106.6;148.8
0;0;('X001', {'invalidLlh': 'U001'});0;220208000;14.190923434;40.828877995;84178.6;42903.0;34;-5;-4;0;105.4;147.0
0;0;('X001', {'invalidLlh': 'U001'});0;220209000;14.190923418;40.828878256;84316.3;43040.6;18;-44;3;-4;104.5;145.3
0;0;('X001', {'invalidLlh': 'U001'});0;220210000;14.190923389;40.828878527;84454.4;43178.8;-11;27;4;-2;102.4;142.0
0;0;('X001', {'invalidLlh': 'U001'});0;220211000;14.190923403;40.828878746;84578.4;43302.7;3;46;4;-3;100.9;139.8
0;0;('X001', {'invalidLlh': 'U001'});0;220212000;14.190923441;40.828878898;84673.7;43398.1;41;-2;-3;1;99.5;138.1
0;0;('X001', {'invalidLlh': 'U001'});0;220213000;14.190923496;40.828879011;84748.4;43472.8;-4;11;4;-2;98.3;136.7
0;0;('X001', {'invalidLlh': 'U001'});0;220214000;14.190923549;40.828879088;84798.9;43523.3;49;-12;-1;3;97.3;135.4
0;0;('X001', {'invalidLlh': 'U001'});0;220215000;14.190923597;40.828879207;84836.4;43560.7;-3;7;4;-3;96.2;133.9
0;0;('X001', {'invalidLlh': 'U001'});0;220216000;14.190923639;40.828879294;84866.8;43591.1;39;-6;-2;1;95.3;132.2
0;0;('X001', {'invalidLlh': 'U001'});0;220217000;14.190923696;40.828879335;84875.3;43599.7;-4;35;3;-3;95.6;132.3
0;0;('X001', {'invalidLlh': 'U001'});0;220218000;14.190923732;40.828879317;84866.2;43590.6;32;17;2;-4;95.5;132.4
0;0;('X001', {'invalidLlh': 'U001'});0;220219000;14.190923741;40.828879267;84857.4;43581.8;41;-33;4;-2;95.3;131.9
0;0;('X001', {'invalidLlh': 'U001'});0;220220000;14.190923728;40.828879182;84850.9;43575.3;28;-18;-1;3;94.7;130.7
0;0;('X001', {'invalidLlh': 'U001'});0;220221000;14.19092372;40.82887907;84838.9;43563.3;20;-30;-1;3;94.2;130.0
0;0;('X001', {'invalidLlh': 'U001'});0;220222000;14.190923724;40.828878964;84813.6;43538.0;24;-36;-4;0;93.6;129.2
0;0;('X001', {'invalidLlh': 'U001'});0;220223000;14.190923735;40.828878812;84774.1;43498.5;35;12;1;-5;91.6;126.5
0;0;('X001', {'invalidLlh': 'U001'});0;220224000;14.190923707;40.828878628;84736.1;43460.5;7;28;1;5;90.4;125.1
0;0;('X001', {'invalidLlh': 'U001'});0;220225000;14.190923685;40.828878385;84689.9;43414.3;-15;-15;-1;3;89.6;124.3
0;0;('X001', {'invalidLlh': 'U001'});0;220226000;14.190923688;40.828878097;84639.7;43364.1;-12;-3;-3;1;88.9;123.3
0;0;('X001', {'invalidLlh': 'U001'});0;220227000;14.190923691;40.828877826;84583.1;43307.4;-9;26;1;4;88.4;122.8
0;0;('X001', {'invalidLlh': 'U001'});0;220228000;14.190923645;40.828877541;84523.5;43247.9;45;41;5;-1;87.6;122.2
0;0;('X001', {'invalidLlh': 'U001'});0;220229000;14.190923596;40.828877279;84461.6;43186.0;-4;-21;-4;0;87.2;121.4
0;0;('X001', {'invalidLlh': 'U001'});0;220230000;14.190923571;40.828877011;84401.8;43126.2;-29;11;-2;2;86.7;120.5
0;0;('X001', {'invalidLlh': 'U001'});0;220231000;14.190923547;40.828876782;84352.9;43077.3;47;-18;-1;3;85.8;119.5
0;0;('X001', {'invalidLlh': 'U001'});0;220232000;14.190923522;40.828876511;84306.1;43030.4;22;11;1;4;85.1;118.6
0;0;('X001', {'invalidLlh': 'U001'});0;220233000;14.190923462;40.828876212;84256.4;42980.8;-38;12;4;-2;84.7;117.8
0;0;('X001', {'invalidLlh': 'U001'});0;220234000;14.190923397;40.828875956;84210.0;42934.4;-3;-44;0;4;84.4;116.9
0;0;('X001', {'invalidLlh': 'U001'});0;220235000;14.190923368;40.828875686;84161.1;42885.5;-32;-14;1;5;83.8;116.4
0;0;('X001', {'invalidLlh': 'U001'});0;220236000;14.190923302;40.828875455;84110.9;42835.3;2;-45;-1;3;83.2;115.8
0;0;('X001', {'invalidLlh': 'U001'});0;220237000;14.190923176;40.82887557;84140.5;42864.9;-24;-30;5;-1;80.9;112.0
0;0;('X001', {'invalidLlh': 'U001'});0;220238000;14.190923069;40.828875764;84219.2;42943.6;-31;-36;2;-4;79.9;110.5
0;0;('X001', {'invalidLlh': 'U001'});0;220239000;14.190923011;40.828876037;84306.2;43030.6;11;37;2;-4;79.6;110.3
0;0;('X001', {'invalidLlh': 'U001'});0;220240000;14.190923003;40.828876316;84389.9;43114.3;3;16;-1;3;79.2;109.8
0;0;('X001', {'invalidLlh': 'U001'});0;220241000;14.19092297;40.828876582;84456.1;43180.5;-30;-18;1;-5;78.7;109.1
0;0;('X001', {'invalidLlh': 'U001'});0;220242000;14.190922938;40.82887682;84516.0;43240.4;38;20;0;4;78.0;108.7
0;0;('X001', {'invalidLlh': 'U001'});0;220243000;14.190922948;40.828877023;84565.7;43290.0;48;23;-3;0;77.7;108.1
0;0;('X001', {'invalidLlh': 'U001'});0;220244000;14.19092295;40.828877221;84612.7;43337.1;50;21;-3;1;77.5;107.5
0;0;('X001', {'invalidLlh': 'U001'});0;220245000;14.190922965;40.828877382;84668.5;43392.9;-35;-18;-5;-1;76.9;106.6
0;0;('X001', {'invalidLlh': 'U001'});0;220246000;14.190922978;40.828877494;84727.8;43452.1;-22;-6;-2;1;76.1;105.9
0;0;('X001', {'invalidLlh': 'U001'});0;220247000;14.190922977;40.82887757;84776.6;43501.0;-23;-30;-4;0;75.5;105.1
0;0;('X001', {'invalidLlh': 'U001'});0;220248000;14.190922972;40.828877627;84813.6;43538.0;-28;27;-4;0;75.1;104.3
0;0;('X001', {'invalidLlh': 'U001'});0;220249000;14.190922994;40.828877662;84837.8;43562.2;-6;-38;-2;2;74.7;104.0
0;0;('X001', {'invalidLlh': 'U001'});0;220250000;14.190923025;40.828877696;84870.6;43595.0;25;-4;-4;0;74.7;103.6
0;0;('X001', {'invalidLlh': 'U001'});0;220251000;14.19092305;40.828877706;84895.8;43620.2;50;6;-2;2;74.7;103.2
0;0;('X001', {'invalidLlh': 'U001'});0;220252000;14.190923051;40.828877664;84914.5;43638.9;-49;-36;-5;-1;74.3;102.7
0;0;('X001', {'invalidLlh': 'U001'});0;220253000;14.190923026;40.828877575;84931.2;43655.6;26;-25;2;-4;73.9;102.2
0;0;('X001', {'invalidLlh': 'U001'});0;220254000;14.190922977;40.828877429;84933.8;43658.2;-23;29;-2;2;73.7;101.7
0;0;('X001', {'invalidLlh': 'U001'});0;220255000;14.190922905;40.828877298;84941.9;43666.3;5;-2;-1;3;73.1;100.7
0;0;('X001', {'invalidLlh': 'U001'});0;220256000;14.190922852;40.828877172;84952.8;43677.2;-48;-28;-2;2;72.4;99.7
0;0;('X001', {'invalidLlh': 'U001'});0;220257000;14.190922838;40.82887708;84966.0;43690.4;38;-20;0;4;72.0;99.4
0;0;('X001', {'invalidLlh': 'U001'});0;220258000;14.190922801;40.828876962;84968.6;43693.0;1;-38;-4;0;71.8;98.9
0;0;('X001', {'invalidLlh': 'U001'});0;220259000;14.19092278;40.828876811;84965.4;43689.8;-20;11;4;-2;71.5;98.4
0;0;('X001', {'invalidLlh': 'U001'});0;220260000;14.190922758;40.828876663;84955.4;43679.7;-42;-37;4;-3;71.0;97.9
0;0;('X001', {'invalidLlh': 'U001'});0;220261000;14.190922767;40.828876478;84946.0;43670.4;-33;-22;0;4;70.8;97.6
0;0;('X001', {'invalidLlh': 'U001'});0;220262000;14.190922744;40.828876287;84932.6;43657.0;44;-13;-4;0;70.6;97.3
0;0;('X001', {'invalidLlh': 'U001'});0;220263000;14.19092274;40.828876129;84921.9;43646.3;40;29;-1;3;70.4;97.1
0;0;('X001', {'invalidLlh': 'U001'});0;220264000;14.190922755;40.828875996;84909.0;43633.4;-45;-4;0;4;70.2;96.8
0;0;('X001', {'invalidLlh': 'U001'});0;220265000;14.190922753;40.828875867;84889.0;43613.4;-47;-33;0;4;69.9;96.4
0;0;('X001', {'invalidLlh': 'U001'});0;220266000;14.190922756;40.828875755;84867.8;43592.2;-44;-45;-2;2;69.6;95.8
0;0;('X001', {'invalidLlh': 'U001'});0;220267000;14.19092273;40.828875811;84902.9;43627.2;30;11;-1;2;68.1;92.9
0;0;('X001', {'invalidLlh': 'U001'});0;220268000;14.190922705;40.828875835;84958.2;43682.6;5;35;2;-4;67.5;92.3
0;0;('X001', {'invalidLlh': 'U001'});0;220269000;14.190922698;40.828875801;85017.5;43741.9;-2;1;5;-1;67.0;91.7
0;0;('X001', {'invalidLlh': 'U001'});0;220270000;14.190922715;40.82887568;85080.3;43804.7;15;-20;3;-3;66.7;91.4
0;0;('X001', {'invalidLlh': 'U001'});0;220271000;14.190922715;40.828875477;85142.0;43866.4;15;-23;0;4;66.2;90.8
0;0;('X001', {'invalidLlh': 'U001'});0;220272000;14.190922686;40.828875235;85192.1;43916.5;-14;35;1;-5;65.7;90.1
0;0;('X001', {'invalidLlh': 'U001'});0;220273000;14.190922629;40.828875015;85236.4;43960.8;29;15;4;-2;66.5;90.8
0;0;('X001', {'invalidLlh': 'U001'});0;220274000;14.190922578;40.82887481;85270.2;43994.6;-22;10;2;-4;66.7;91.1
0;0;('X001', {'invalidLlh': 'U001'});0;220275000;14.190922524;40.828874729;85282.1;44006.5;24;29;1;5;66.4;90.7
0;0;('X001', {'invalidLlh': 'U001'});0;220276000;14.190922492;40.8288747;85288.1;44012.4;-8;0;1;4;66.4;90.9
0;0;('X001', {'invalidLlh': 'U001'});0;220277000;14.190922476;40.828874684;85291.3;44015.7;-24;-16;3;-3;66.1;90.7
0;0;('X001', {'invalidLlh': 'U001'});0;220278000;14.190922453;40.828874662;85294.3;44018.6;-47;-38;3;-4;65.8;90.6
0;0;('X001', {'invalidLlh': 'U001'});0;220279000;14.190922505;40.828874608;85276.8;44001.2;5;8;-2;2;65.4;89.8
0;0;('X001', {'invalidLlh': 'U001'});0;220280000;14.19092251;40.82887458;85270.9;43995.3;10;-20;-1;3;65.5;89.5
0;0;('X001', {'invalidLlh': 'U001'});0;220281000;14.190922506;40.828874572;85263.2;43987.6;6;-28;2;-4;65.4;89.0
0;0;('X001', {'invalidLlh': 'U001'});0;220282000;14.190922501;40.828874599;85257.4;43981.8;1;-1;4;-2;65.0;89.0
0;0;('X001', {'invalidLlh': 'U001'});0;220283000;14.190922517;40.828874608;85248.5;43972.9;17;8;5;-1;65.0;89.0
0;0;('X001', {'invalidLlh': 'U001'});0;220284000;14.190922582;40.828874564;85248.2;43972.6;-18;-36;2;-4;64.6;88.5
0;0;('X001', {'invalidLlh': 'U001'});0;220285000;14.190922595;40.828874508;85246.4;43970.8;-5;8;4;-2;63.9;88.2
0;0;('X001', {'invalidLlh': 'U001'});0;220286000;14.190922592;40.828874477;85234.3;43958.6;-8;-23;3;-4;62.6;86.6
0;0;('X001', {'invalidLlh': 'U001'});0;220287000;14.1909226;40.828874432;85217.3;43941.7;0;32;3;-3;62.4;86.0
0;0;('X001', {'invalidLlh': 'U001'});0;220288000;14.190922593;40.828874375;85200.1;43924.5;-7;-25;1;5;62.5;86.0
0;0;('X001', {'invalidLlh': 'U001'});0;220289000;14.190922615;40.82887434;85182.9;43907.3;15;40;-1;3;62.0;85.2
0;0;('X001', {'invalidLlh': 'U001'});0;220290000;14.190922609;40.828874327;85171.2;43895.6;9;27;2;-4;61.9;84.5
0;0;('X001', {'invalidLlh': 'U001'});0;220291000;14.190922611;40.828874287;85150.9;43875.3;11;-13;-1;3;61.8;84.3
0;0;('X001', {'invalidLlh': 'U001'});0;220292000;14.190922563;40.828874276;85131.8;43856.2;-37;-24;-2;2;61.7;84.1
0;0;('X001', {'invalidLlh': 'U001'});0;220293000;14.190922534;40.828874224;85113.8;43838.2;34;24;-2;2;61.5;83.8
0;0;('X001', {'invalidLlh': 'U001'});0;220294000;14.190922484;40.828874175;85095.9;43820.3;-16;-25;-1;3;61.6;83.6
0;0;('X001', {'invalidLlh': 'U001'});0;220295000;14.190922476;40.828874144;85079.3;43803.6;-24;44;3;-4;61.5;83.8
0;0;('X001', {'invalidLlh': 'U001'});0;220296000;14.190922452;40.82887412;85065.5;43789.9;-48;20;5;-1;61.3;83.5
0;0;('X001', {'invalidLlh': 'U001'});0;220297000;14.19092245;40.828874105;85047.6;43772.0;50;5;-4;0;61.3;83.4
0;0;('X001', {'invalidLlh': 'U001'});0;220298000;14.19092228;40.828874376;85056.8;43781.2;-20;-24;-2;2;59.8;80.8
0;0;('X001', {'invalidLlh': 'U001'});0;220299000;14.190922161;40.828874694;85080.0;43804.4;-39;-6;0;4;59.1;79.8
0;0;('X001', {'invalidLlh': 'U001'});0;220300000;14.190922095;40.828874921;85118.7;43843.1;-5;21;-3;1;58.9;79.6
0;0;('X001', {'invalidLlh': 'U001'});0;220301000;14.190922053;40.828875111;85160.9;43885.3;-47;11;-1;3;58.8;79.8
0;0;('X001', {'invalidLlh': 'U001'});0;220302000;14.19092203;40.828875219;85200.9;43925.3;30;19;-1;3;58.6;79.8
0;0;('X001', {'invalidLlh': 'U001'});0;220303000;14.190922019;40.828875285;85233.9;43958.3;19;-15;-1;3;58.4;79.7
0;0;('X001', {'invalidLlh': 'U001'});0;220304000;14.190922001;40.828875337;85259.3;43983.7;1;37;3;-3;58.3;79.6
0;0;('X001', {'invalidLlh': 'U001'});0;220305000;14.190921989;40.82887529;85275.5;43999.9;-11;-10;5;-1;58.0;78.8
0;0;('X001', {'invalidLlh': 'U001'});0;220306000;14.190921976;40.828875277;85287.3;44011.7;-24;-23;3;-3;58.0;78.5
0;0;('X001', {'invalidLlh': 'U001'});0;220307000;14.190921948;40.828875298;85296.8;44021.2;48;-2;-2;2;58.0;78.4
0;0;('X001', {'invalidLlh': 'U001'});0;220308000;14.190921944;40.828875332;85310.5;44034.9;44;32;-5;-1;57.9;78.3
0;0;('X001', {'invalidLlh': 'U001'});0;220309000;14.19092193;40.828875337;85324.7;44049.1;30;37;-3;1;57.9;78.2
0;0;('X001', {'invalidLlh': 'U001'});0;220310000;14.190921927;40.828875338;85331.7;44056.1;27;38;-3;1;57.6;77.7
0;0;('X001', {'invalidLlh': 'U001'});0;220311000;14.190921906;40.82887537;85329.1;44053.4;6;-30;1;4;58.5;78.4
0;0;('X001', {'invalidLlh': 'U001'});0;220312000;14.190921862;40.828875408;85325.0;44049.4;-38;8;0;4;58.7;78.5
0;0;('X001', {'invalidLlh': 'U001'});0;220313000;14.190921837;40.828875457;85320.0;44044.4;37;-43;0;4;58.6;78.4
0;0;('X001', {'invalidLlh': 'U001'});0;220314000;14.19092173;40.82887553;85321.8;44046.2;30;30;-2;2;58.1;78.0
0;0;('X001', {'invalidLlh': 'U001'});0;220315000;14.19092169;40.82887556;85320.4;44044.8;-10;-40;4;-2;57.8;77.7
0;0;('X001', {'invalidLlh': 'U001'});0;220316000;14.190921671;40.828875489;85318.8;44043.1;-29;-11;-2;1;57.5;77.6
0;0;('X001', {'invalidLlh': 'U001'});0;220317000;14.190921646;40.828875403;85320.3;44044.7;46;3;3;-3;57.3;77.2
0;0;('X001', {'invalidLlh': 'U001'});0;220318000;14.190921606;40.828875342;85317.4;44041.8;6;42;4;-2;57.1;77.0
0;0;('X001', {'invalidLlh': 'U001'});0;220319000;14.190921544;40.828875362;85322.9;44047.3;44;-38;-1;3;56.6;76.3
0;0;('X001', {'invalidLlh': 'U001'});0;220320000;14.190921471;40.82887539;85323.1;44047.5;-29;-10;1;5;56.4;76.0
0;0;('X001', {'invalidLlh': 'U001'});0;220321000;14.190921455;40.828875402;85327.4;44051.7;-45;2;4;-3;56.4;76.0
0;0;('X001', {'invalidLlh': 'U001'});0;220322000;14.190921426;40.828875387;85335.9;44060.3;26;-13;-1;3;56.3;75.9
0;0;('X001', {'invalidLlh': 'U001'});0;220323000;14.190921396;40.828875342;85337.7;44062.1;-4;42;-3;1;56.3;75.8
0;0;('X001', {'invalidLlh': 'U001'});0;220324000;14.190921355;40.828875314;85334.7;44059.1;-45;14;-3;1;56.2;75.8
0;0;('X001', {'invalidLlh': 'U001'});0;220325000;14.190921314;40.828875301;85328.4;44052.8;14;1;4;-2;56.2;75.7
0;0;('X001', {'invalidLlh': 'U001'});0;220326000;14.19092107;40.828875371;85326.0;44050.3;-30;-29;0;3;56.0;75.2
0;0;('X001', {'invalidLlh': 'U001'});0;220327000;14.190920961;40.828875441;85340.3;44064.6;-39;41;3;-4;55.3;73.9
0;0;('X001', {'invalidLlh': 'U001'});0;220328000;14.190920934;40.8288755;85354.3;44078.7;34;0;3;-3;55.1;73.7
0;0;('X001', {'invalidLlh': 'U001'});0;220329000;14.190920922;40.828875536;85369.0;44093.4;22;36;0;4;55.1;73.6
0;0;('X001', {'invalidLlh': 'U001'});0;220330000;14.190920878;40.828875587;85387.2;44111.6;-22;-13;2;-4;54.5;73.0
0;0;('X001', {'invalidLlh': 'U001'});0;220331000;14.190920853;40.828875635;85407.9;44132.3;-47;35;-1;3;54.4;72.8
0;0;('X001', {'invalidLlh': 'U001'});0;220332000;14.190920825;40.828875682;85427.5;44151.8;25;-18;5;-2;54.3;72.7
0;0;('X001', {'invalidLlh': 'U001'});0;220333000;14.190920809;40.828875762;85447.4;44171.8;9;-38;4;-2;54.0;72.5
0;0;('X001', {'invalidLlh': 'U001'});0;220334000;14.1909208;40.828875855;85469.3;44193.6;0;-45;3;-4;52.4;71.0
0;0;('X001', {'invalidLlh': 'U001'});0;220335000;14.19092082;40.828875915;85483.3;44207.7;20;15;3;-3;52.0;70.6
0;0;('X001', {'invalidLlh': 'U001'});0;220336000;14.190920833;40.828875975;85490.1;44214.5;33;-25;1;5;52.1;70.5
0;0;('X001', {'invalidLlh': 'U001'});0;220337000;14.190920832;40.828876058;85492.2;44216.5;32;-42;2;-5;52.0;70.4
0;0;('X001', {'invalidLlh': 'U001'});0;220338000;14.19092084;40.828876151;85494.8;44219.2;40;-49;-2;2;52.1;70.3
0;0;('X001', {'invalidLlh': 'U001'});0;220339000;14.190920883;40.828876252;85507.3;44231.6;-17;-48;3;-4;52.7;73.4
0;0;('X001', {'invalidLlh': 'U001'});0;220340000;14.190920925;40.828876348;85512.0;44236.3;25;48;0;3;51.8;70.3
0;0;('X001', {'invalidLlh': 'U001'});0;220341000;14.190920971;40.828876401;85511.2;44235.6;-29;1;2;-4;51.7;69.7
0;0;('X001', {'invalidLlh': 'U001'});0;220342000;14.190921;40.82887643;85511.5;44235.9;0;30;-5;-1;52.6;73.4
0;0;('X001', {'invalidLlh': 'U001'});0;220343000;14.190921017;40.828876416;85505.5;44229.9;17;16;5;-1;51.5;70.1
0;0;('X001', {'invalidLlh': 'U001'});0;220344000;14.190921024;40.828876413;85506.6;44231.0;24;13;-4;0;51.3;69.4
0;0;('X001', {'invalidLlh': 'U001'});0;220345000;14.190921052;40.828876419;85507.8;44232.2;-48;19;-2;2;52.2;73.1
0;0;('X001', {'invalidLlh': 'U001'});0;220346000;14.190921101;40.828876403;85508.9;44233.3;1;3;-1;3;51.4;69.8
0;0;('X001', {'invalidLlh': 'U001'});0;220347000;14.190921141;40.828876391;85505.9;44230.3;41;-9;-1;3;51.3;69.1
0;0;('X001', {'invalidLlh': 'U001'});0;220348000;14.190921158;40.828876376;85506.4;44230.8;-42;-24;4;-2;52.1;72.7
0;0;('X001', {'invalidLlh': 'U001'});0;220349000;14.19092118;40.828876368;85505.1;44229.5;-20;-32;1;5;51.5;70.0
0;0;('X001', {'invalidLlh': 'U001'});0;220350000;14.190921189;40.828876328;85501.2;44225.5;-11;28;2;-5;51.0;68.6
0;0;('X001', {'invalidLlh': 'U001'});0;220351000;14.190921205;40.82887626;85498.3;44222.7;5;-40;3;-3;50.8;68.4
0;0;('X001', {'invalidLlh': 'U001'});0;220352000;14.190921205;40.828876198;85496.7;44221.1;5;-2;-3;1;50.9;68.4
0;0;('X001', {'invalidLlh': 'U001'});0;220353000;14.190921216;40.82887615;85495.5;44219.9;16;-50;-5;-1;50.9;68.4
0;0;('X001', {'invalidLlh': 'U001'});0;220354000;14.190921236;40.828876122;85484.1;44208.5;36;22;1;5;50.9;68.5
0;0;('X001', {'invalidLlh': 'U001'});0;220355000;14.190921267;40.828876101;85468.9;44193.3;-33;1;-1;3;50.8;68.6
0;0;('X001', {'invalidLlh': 'U001'});0;220356000;14.190921297;40.828876071;85454.1;44178.5;-3;-29;1;5;50.8;68.6
0;0;('X001', {'invalidLlh': 'U001'});0;220357000;14.190921182;40.828876041;85464.8;44189.2;-18;41;-2;2;49.5;66.7
0;0;('X001', {'invalidLlh': 'U001'});0;220358000;14.19092114;40.828876065;85458.7;44183.1;40;-35;-3;1;49.6;66.7
0;0;('X001', {'invalidLlh': 'U001'});0;220359000;14.190921135;40.82887614;85448.2;44172.6;35;40;2;-4;49.6;66.8
0;0;('X001', {'invalidLlh': 'U001'});0;220360000;14.190921156;40.828876176;85448.0;44172.4;-44;-24;0;4;48.6;65.5
0;0;('X001', {'invalidLlh': 'U001'});0;220361000;14.190921191;40.828876184;85455.0;44179.4;-9;-16;0;4;48.4;65.2
0;0;('X001', {'invalidLlh': 'U001'});0;220362000;14.190921229;40.828876191;85455.9;44180.3;29;-9;-1;3;48.4;65.3
0;0;('X001', {'invalidLlh': 'U001'});0;220363000;14.190921246;40.828876205;85450.8;44175.2;46;5;-2;2;48.3;65.3
0;0;('X001', {'invalidLlh': 'U001'});0;220364000;14.190921278;40.828876228;85441.3;44165.6;-22;28;3;-4;48.3;65.4
0;0;('X001', {'invalidLlh': 'U001'});0;220365000;14.190921305;40.828876257;85435.4;44159.8;5;-43;4;-2;48.7;65.7
0;0;('X001', {'invalidLlh': 'U001'});0;220366000;14.190921331;40.828876272;85431.6;44155.9;31;-28;-4;-1;48.9;65.7
0;0;('X001', {'invalidLlh': 'U001'});0;220367000;14.190921352;40.828876281;85428.2;44152.5;-48;-19;2;-5;48.9;65.7
0;0;('X001', {'invalidLlh': 'U001'});0;220368000;14.190921376;40.828876244;85424.3;44148.7;-24;44;3;-3;48.9;65.7
0;0;('X001', {'invalidLlh': 'U001'});0;220369000;14.190921392;40.828876204;85420.1;44144.5;-8;4;1;-5;48.9;65.6
0;0;('X001', {'invalidLlh': 'U001'});0;220370000;14.190921446;40.828876163;85407.5;44131.9;46;-37;5;-1;48.7;65.8
0;0;('X001', {'invalidLlh': 'U001'});0;220371000;14.190921487;40.828876139;85396.0;44120.4;-13;39;0;4;48.5;65.7
0;0;('X001', {'invalidLlh': 'U001'});0;220372000;14.190921503;40.82887613;85383.6;44107.9;3;30;-4;-1;48.4;65.7
0;0;('X001', {'invalidLlh': 'U001'});0;220373000;14.19092152;40.828876103;85373.6;44098.0;20;3;-4;0;48.4;65.7
0;0;('X001', {'invalidLlh': 'U001'});0;220374000;14.190921538;40.82887607;85363.0;44087.3;38;-30;0;3;47.8;64.4
0;0;('X001', {'invalidLlh': 'U001'});0;220375000;14.190921578;40.828876045;85352.6;44077.0;-22;45;-4;0;47.7;64.2
0;0;('X001', {'invalidLlh': 'U001'});0;220376000;14.190921588;40.828876016;85337.4;44061.8;-12;16;4;-2;47.7;64.2
0;0;('X001', {'invalidLlh': 'U001'});0;220377000;14.190921603;40.828875979;85326.5;44050.9;3;-21;-5;-1;47.4;64.0
0;0;('X001', {'invalidLlh': 'U001'});0;220378000;14.190921622;40.828875922;85315.5;44039.9;22;22;5;-1;47.4;64.0
0;0;('X001', {'invalidLlh': 'U001'});0;220379000;14.190921647;40.828875885;85307.6;44031.9;47;-15;-4;-1;46.8;63.2
0;0;('X001', {'invalidLlh': 'U001'});0;220380000;14.190921652;40.828875842;85294.7;44019.1;-48;42;-3;1;46.7;63.0
0;0;('X001', {'invalidLlh': 'U001'});0;220381000;14.190921697;40.828875827;85279.6;44004.0;-3;27;-4;0;46.7;63.0
0;0;('X001', {'invalidLlh': 'U001'});0;220382000;14.190921707;40.828875817;85259.2;43983.6;7;17;2;-4;46.6;63.1
0;0;('X001', {'invalidLlh': 'U001'});0;220383000;14.190921728;40.82887577;85242.8;43967.2;28;-30;-2;2;46.5;63.1
0;0;('X001', {'invalidLlh': 'U001'});0;220384000;14.190921727;40.828875711;85229.6;43954.0;27;11;-4;0;46.5;63.1
0;0;('X001', {'invalidLlh': 'U001'});0;220385000;14.19092173;40.828875639;85216.5;43940.9;30;39;-5;-1;46.7;63.0
0;0;('X001', {'invalidLlh': 'U001'});0;220386000;14.190921662;40.828875671;85188.2;43912.6;-38;-29;2;-4;46.4;62.3
0;0;('X001', {'invalidLlh': 'U001'});0;220387000;14.190921639;40.828875696;85191.4;43915.8;39;-4;4;-2;45.8;61.5
0;0;('X001', {'invalidLlh': 'U001'});0;220388000;14.190921669;40.828875734;85201.9;43926.2;-31;34;-1;2;45.7;61.4
0;0;('X001', {'invalidLlh': 'U001'});0;220389000;14.190921697;40.828875776;85213.5;43937.9;-3;-24;-5;-1;45.1;60.4
